{"historial":[{"id":"place.8444947867289190","name":"Manizales, Caldas, Colombia","lng":-75.48472,"lat":5.06611,"temp":16.44,"min":16.44,"max":16.44,"desc":"nubes","speed_wind":1.1,"pressure":1018,"humidity":97},{"id":"place.14749210607497330","name":"París, Francia","lng":2.35183,"lat":48.85658,"temp":6.96,"min":5.11,"max":8.4,"desc":"nubes","speed_wind":3.13,"pressure":1021,"humidity":84},{"id":"place.15833388490118260","name":"Popayán, Cauca, Colombia","lng":-76.60028,"lat":2.45917,"temp":15.43,"min":15.43,"max":15.43,"desc":"nubes","speed_wind":0.22,"pressure":1017,"humidity":98},{"id":"place.9763118430078420","name":"Garzón, Huila, Colombia","lng":-75.6278,"lat":2.1959,"temp":20.96,"min":20.96,"max":20.96,"desc":"nubes","speed_wind":0.66,"pressure":1014,"humidity":94},{"id":"place.5287418057664750","name":"Cali, Valle del Cauca, Colombia","lng":-76.51972,"lat":3.44,"temp":22.97,"min":22.97,"max":22.97,"desc":"nubes dispersas","speed_wind":4.63,"pressure":1015,"humidity":68}]}